{"nodes": [{"comment": "", "city": "Kansas City", "updated": "Sat Apr 14 22:52:09 EDT 2012", "name": "Andrew Schoen", "zip": "64108", "created": "Sat Apr 14 22:52:09 EDT 2012", "event_id": 60617252, "country": "us", "lon": "-94.58000183105469", "coord": "39.08000183105469", "response": "yes", "state": "MO", "link": "http://www.meetup.com/members/15470571", "answers": [], "member_id": 15470571, "photo_url": "http://photos1.meetupstatic.com/photos/member/4/2/6/member_45889062.jpeg", "id": "15470571", "guests": "0"}, {"comment": "", "city": "Kansas City", "updated": "Fri May 18 14:48:34 EDT 2012", "name": "Brandon Holtsclaw", "zip": "64138", "created": "Fri May 18 14:48:34 EDT 2012", "event_id": 60617252, "country": "us", "lon": "-94.47000122070312", "coord": "38.970001220703125", "response": "yes", "state": "MO", "link": "http://www.meetup.com/members/12421251", "answers": [], "member_id": 12421251, "photo_url": "http://photos1.meetupstatic.com/photos/member/1/0/0/f/member_10090111.jpeg", "id": "12421251", "guests": "0"}, {"comment": "", "city": "Kansas City", "updated": "Thu May 17 11:04:25 EDT 2012", "name": "Caleb", "zip": "64114", "created": "Thu May 17 11:04:25 EDT 2012", "event_id": 60617252, "country": "us", "lon": "-94.5999984741211", "coord": "38.959999084472656", "response": "yes", "state": "MO", "link": "http://www.meetup.com/members/3016720", "answers": [], "member_id": 3016720, "photo_url": "http://photos1.meetupstatic.com/photos/member/b/e/2/member_50175042.jpeg", "id": "3016720", "guests": "0"}, {"comment": "", "city": "Kansas City", "updated": "Sat May 19 10:55:45 EDT 2012", "name": "Cary Coulter", "zip": "64108", "created": "Sat May 19 10:55:45 EDT 2012", "event_id": 60617252, "country": "us", "lon": "-94.58000183105469", "coord": "39.08000183105469", "response": "yes", "state": "MO", "link": "http://www.meetup.com/members/42148972", "answers": [], "member_id": 42148972, "photo_url": "", "id": "42148972", "guests": "0"}, {"comment": "", "city": "Kansas City", "updated": "Sat Apr 14 22:52:09 EDT 2012", "name": "Chip Warden", "zip": "64131", "created": "Sat Apr 14 22:52:09 EDT 2012", "event_id": 60617252, "country": "us", "lon": "-94.56999969482422", "coord": "38.970001220703125", "response": "yes", "state": "MO", "link": "http://www.meetup.com/members/12169524", "answers": [], "member_id": 12169524, "photo_url": "http://photos1.meetupstatic.com/photos/member/1/7/0/d/member_15635901.jpeg", "id": "12169524", "guests": "0"}, {"comment": "", "city": "Shawnee", "updated": "Thu May 10 23:53:26 EDT 2012", "name": "Chuck Johnson", "zip": "66203", "created": "Thu May 10 23:53:26 EDT 2012", "event_id": 60617252, "country": "us", "lon": "-94.69999694824219", "coord": "39.02000045776367", "response": "yes", "state": "KS", "link": "http://www.meetup.com/members/13686525", "answers": [], "member_id": 13686525, "photo_url": "http://photos1.meetupstatic.com/photos/member/1/4/4/9/member_11645193.jpeg", "id": "13686525", "guests": "0"}, {"comment": "", "city": "Albany", "updated": "Thu May 10 16:51:35 EDT 2012", "name": "Craig Kerstiens", "zip": "94706", "created": "Thu May 10 16:51:35 EDT 2012", "event_id": 60617252, "country": "us", "lon": "-122.29000091552734", "coord": "37.88999938964844", "response": "yes", "state": "CA", "link": "http://www.meetup.com/members/10347521", "answers": [], "member_id": 10347521, "photo_url": "http://photos1.meetupstatic.com/photos/member/f/3/7/member_7593895.jpeg", "id": "10347521", "guests": "0"}, {"comment": "", "city": "New York", "updated": "Thu May 24 15:49:51 EDT 2012", "name": "Dmitri Gaisan", "zip": "10001", "created": "Thu May 24 15:49:51 EDT 2012", "event_id": 60617252, "country": "us", "lon": "-73.98999786376953", "coord": "40.75", "response": "yes", "state": "NY", "link": "http://www.meetup.com/members/13302727", "answers": [], "member_id": 13302727, "photo_url": "http://photos1.meetupstatic.com/photos/member/1/6/8/9/member_12449769.jpeg", "id": "13302727", "guests": "0"}, {"comment": "", "city": "Kansas City", "updated": "Fri May 11 14:52:30 EDT 2012", "name": "James Eggers", "zip": "64112", "created": "Fri May 11 14:52:30 EDT 2012", "event_id": 60617252, "country": "us", "lon": "-94.58999633789062", "coord": "39.040000915527344", "response": "yes", "state": "MO", "link": "http://www.meetup.com/members/13319805", "answers": [], "member_id": 13319805, "photo_url": "http://photos1.meetupstatic.com/photos/member/f/4/8/member_53829912.jpeg", "id": "13319805", "guests": "0"}, {"comment": "", "city": "Overland Park", "updated": "Thu May 10 18:03:06 EDT 2012", "name": "Jason Goldstein", "zip": "66224", "created": "Thu May 10 18:03:06 EDT 2012", "event_id": 60617252, "country": "us", "lon": "-94.62999725341797", "coord": "38.869998931884766", "response": "yes", "state": "KS", "link": "http://www.meetup.com/members/13124774", "answers": [], "member_id": 13124774, "photo_url": "http://photos1.meetupstatic.com/photos/member/7/6/3/member_20149891.jpeg", "id": "13124774", "guests": "0"}, {"comment": "", "city": "Kansas City", "updated": "Thu May 10 18:07:21 EDT 2012", "name": "Jeff", "zip": "64116", "created": "Thu May 10 18:07:21 EDT 2012", "event_id": 60617252, "country": "us", "lon": "-94.56999969482422", "coord": "39.150001525878906", "response": "yes", "state": "MO", "link": "http://www.meetup.com/members/8153250", "answers": [], "member_id": 8153250, "photo_url": "http://photos1.meetupstatic.com/photos/member/a/2/member_50718162.jpeg", "id": "8153250", "guests": "0"}, {"comment": "", "city": "Kansas City", "updated": "Wed May 23 21:53:35 EDT 2012", "name": "Jon Smajda", "zip": "64108", "created": "Wed May 23 21:53:35 EDT 2012", "event_id": 60617252, "country": "us", "lon": "-94.58000183105469", "coord": "39.08000183105469", "response": "yes", "state": "MO", "link": "http://www.meetup.com/members/44580502", "answers": [], "member_id": 44580502, "photo_url": "http://photos1.meetupstatic.com/photos/member/8/8/6/member_49988182.jpeg", "id": "44580502", "guests": "0"}, {"comment": "", "city": "Overland Park", "updated": "Thu May 10 17:55:05 EDT 2012", "name": "Josh Bohde", "zip": "66223", "created": "Thu May 10 17:55:05 EDT 2012", "event_id": 60617252, "country": "us", "lon": "-94.66999816894531", "coord": "38.849998474121094", "response": "yes", "state": "KS", "link": "http://www.meetup.com/members/12190508", "answers": [], "member_id": 12190508, "photo_url": "http://photos1.meetupstatic.com/photos/member/7/5/6/member_9811878.jpeg", "id": "12190508", "guests": "0"}, {"comment": "", "city": "Kansas City", "updated": "Thu May 24 20:03:02 EDT 2012", "name": "Luke Patterson", "zip": "64108", "created": "Thu May 24 20:03:02 EDT 2012", "event_id": 60617252, "country": "us", "lon": "-94.58000183105469", "coord": "39.08000183105469", "response": "yes", "state": "MO", "link": "http://www.meetup.com/members/38093722", "answers": [], "member_id": 38093722, "photo_url": "http://photos1.meetupstatic.com/photos/member/6/1/a/member_55603562.jpeg", "id": "38093722", "guests": "0"}, {"comment": "", "city": "Independence", "updated": "Sun May 20 21:33:55 EDT 2012", "name": "Mark Stinson", "zip": "64055", "created": "Sun May 20 21:33:55 EDT 2012", "event_id": 60617252, "country": "us", "lon": "-94.4000015258789", "coord": "39.04999923706055", "response": "yes", "state": "MO", "link": "http://www.meetup.com/members/9611787", "answers": [], "member_id": 9611787, "photo_url": "http://photos1.meetupstatic.com/photos/member/1/0/7/c/member_6688220.jpeg", "id": "9611787", "guests": "0"}, {"comment": "", "city": "Lawrence", "updated": "Thu May 10 19:04:17 EDT 2012", "name": "Nate Bunnyfield", "zip": "66044", "created": "Thu May 10 19:04:17 EDT 2012", "event_id": 60617252, "country": "us", "lon": "-95.25", "coord": "38.959999084472656", "response": "yes", "state": "KS", "link": "http://www.meetup.com/members/39280012", "answers": [], "member_id": 39280012, "photo_url": "http://photos1.meetupstatic.com/photos/member/1/7/6/8/member_42701992.jpeg", "id": "39280012", "guests": "0"}, {"comment": "", "city": "Olathe", "updated": "Sat May 12 09:55:51 EDT 2012", "name": "Sam", "zip": "66061", "created": "Thu May 10 18:14:04 EDT 2012", "event_id": 60617252, "country": "us", "lon": "-94.87000274658203", "coord": "38.880001068115234", "response": "yes", "state": "KS", "link": "http://www.meetup.com/members/12041466", "answers": [], "member_id": 12041466, "photo_url": "http://photos1.meetupstatic.com/photos/member/1/3/f/7/member_15263111.jpeg", "id": "12041466", "guests": "0"}, {"comment": "", "city": "Kansas City", "updated": "Thu May 24 19:27:34 EDT 2012", "name": "Trent hauck", "zip": "64112", "created": "Thu May 24 19:27:34 EDT 2012", "event_id": 60617252, "country": "us", "lon": "-94.58999633789062", "coord": "39.040000915527344", "response": "yes", "state": "MO", "link": "http://www.meetup.com/members/19458291", "answers": [], "member_id": 19458291, "photo_url": "http://photos1.meetupstatic.com/photos/member/8/e/9/member_17870281.jpeg", "id": "19458291", "guests": "0"}, {"comment": "", "city": "Kansas City", "updated": "Sat May 12 11:21:25 EDT 2012", "name": "Troy Blank", "zip": "64111", "created": "Sat May 12 11:21:25 EDT 2012", "event_id": 60617252, "country": "us", "lon": "-94.58999633789062", "coord": "39.060001373291016", "response": "yes", "state": "MO", "link": "http://www.meetup.com/members/15469671", "answers": [], "member_id": 15469671, "photo_url": "http://photos1.meetupstatic.com/photos/member/a/d/d/member_14654781.jpeg", "id": "15469671", "guests": "0"}, {"comment": "", "city": "Kansas City", "updated": "Wed May 23 14:46:35 EDT 2012", "name": "Zach Kelling", "zip": "66109", "created": "Wed May 23 14:46:35 EDT 2012", "event_id": 60617252, "country": "us", "lon": "-94.80000305175781", "coord": "39.13999938964844", "response": "yes", "state": "KS", "link": "http://www.meetup.com/members/13339813", "answers": [], "member_id": 13339813, "photo_url": "http://photos1.meetupstatic.com/photos/member/8/c/2/member_44318242.jpeg", "id": "13339813", "guests": "0"}]}