[{"comment": "", "city": "Kansas City", "updated": "Sun Jun 17 10:07:05 EDT 2012", "name": "Aaron Chronister", "zip": "64101", "created": "Sun Jun 17 10:07:05 EDT 2012", "event_id": 62339552, "country": "us", "lon": "-94.5999984741211", "coord": "39.099998474121094", "answers": [""], "id": "12337557", "state": "MO", "link": "http://www.meetup.com/members/12337557", "guests": "0", "member_id": 12337557, "response": "yes", "photo_url": "http://photos1.meetupstatic.com/photos/member/8/f/1/member_9986289.jpeg"}, {"comment": "", "city": "Olathe", "updated": "Thu Jun 21 14:49:51 EDT 2012", "name": "Adam Wright", "zip": "66062", "created": "Thu Jun 21 14:49:51 EDT 2012", "event_id": 62339552, "country": "us", "lon": "-94.77999877929688", "coord": "38.84000015258789", "answers": ["No restrictions"], "id": "22658631", "state": "KS", "link": "http://www.meetup.com/members/22658631", "guests": "0", "member_id": 22658631, "response": "yes", "photo_url": "http://photos1.meetupstatic.com/photos/member/b/f/5/member_21309061.jpeg"}, {"comment": "", "city": "Independence", "updated": "Fri May 25 08:25:41 EDT 2012", "name": "Andrea Schoen", "zip": "64050", "created": "Fri May 25 08:25:41 EDT 2012", "event_id": 62339552, "country": "us", "lon": "-94.4000015258789", "coord": "39.09000015258789", "answers": [""], "id": "28735992", "state": "MO", "link": "http://www.meetup.com/members/28735992", "guests": "0", "member_id": 28735992, "response": "yes", "photo_url": "http://photos1.meetupstatic.com/photos/member/1/6/d/c/member_44651852.jpeg"}, {"comment": "", "city": "Kansas City", "updated": "Thu Apr 26 22:44:33 EDT 2012", "name": "Andrew Schoen", "zip": "64108", "created": "Thu Apr 26 22:44:33 EDT 2012", "event_id": 62339552, "country": "us", "lon": "-94.58000183105469", "coord": "39.08000183105469", "answers": [""], "id": "15470571", "state": "MO", "link": "http://www.meetup.com/members/15470571", "guests": "0", "member_id": 15470571, "response": "yes", "photo_url": "http://photos1.meetupstatic.com/photos/member/4/2/6/member_45889062.jpeg"}, {"comment": "Always interested in learning!", "city": "Kansas City", "updated": "Tue Jun 19 12:50:33 EDT 2012", "name": "Ari", "zip": "64111", "created": "Tue Jun 19 12:50:33 EDT 2012", "event_id": 62339552, "country": "us", "lon": "-94.58999633789062", "coord": "39.060001373291016", "answers": ["Vegetarian! I eat dairy, but I'm not excited about eggs, fish, poultry or other meats."], "id": "4697723", "state": "MO", "link": "http://www.meetup.com/members/4697723", "guests": "0", "member_id": 4697723, "response": "yes", "photo_url": "http://photos1.meetupstatic.com/photos/member/1/2/0/e/member_59026622.jpeg"}, {"comment": "", "city": "Kansas City", "updated": "Thu Jun 21 20:23:21 EDT 2012", "name": "Arun Kumar Kadlai", "zip": "64108", "created": "Thu Jun 21 16:28:15 EDT 2012", "event_id": 62339552, "country": "us", "lon": "-94.58000183105469", "coord": "39.08000183105469", "answers": ["None"], "id": "52101392", "state": "MO", "link": "http://www.meetup.com/members/52101392", "guests": "0", "member_id": 52101392, "response": "yes", "photo_url": ""}, {"comment": "", "city": "Kansas City", "updated": "Wed Jun 06 23:45:38 EDT 2012", "name": "Ashby", "zip": "64110", "created": "Wed Jun 06 23:45:38 EDT 2012", "event_id": 62339552, "country": "us", "lon": "-94.56999969482422", "coord": "39.029998779296875", "answers": ["vegan"], "id": "15426811", "state": "MO", "link": "http://www.meetup.com/members/15426811", "guests": "0", "member_id": 15426811, "response": "yes", "photo_url": "http://photos1.meetupstatic.com/photos/member/a/f/1/member_13592801.jpeg"}, {"comment": "", "city": "Kansas City", "updated": "Tue Jun 12 11:59:09 EDT 2012", "name": "Ashwin", "zip": "64101", "created": "Tue Jun 12 11:59:09 EDT 2012", "event_id": 62339552, "country": "us", "lon": "-94.5999984741211", "coord": "39.099998474121094", "answers": ["None."], "id": "5554711", "state": "MO", "link": "http://www.meetup.com/members/5554711", "guests": "0", "member_id": 5554711, "response": "yes", "photo_url": ""}, {"comment": "", "city": "Kansas City", "updated": "Fri Jun 22 12:45:29 EDT 2012", "name": "Bhanu", "zip": "64108", "created": "Thu Jun 21 13:29:38 EDT 2012", "event_id": 62339552, "country": "us", "lon": "-94.58000183105469", "coord": "39.08000183105469", "answers": ["Vegetarian"], "id": "21470191", "state": "MO", "link": "http://www.meetup.com/members/21470191", "guests": "0", "member_id": 21470191, "response": "no", "photo_url": "http://photos1.meetupstatic.com/photos/member/e/4/d/member_20067661.jpeg"}, {"comment": "", "city": "Overland Park", "updated": "Fri Jun 08 12:42:16 EDT 2012", "name": "Boris Tkachenko", "zip": "66225", "created": "Fri Jun 08 12:42:16 EDT 2012", "event_id": 62339552, "country": "us", "lon": "-94.69000244140625", "coord": "38.88999938964844", "answers": ["lean, low cholesterol"], "id": "46058542", "state": "KS", "link": "http://www.meetup.com/members/46058542", "guests": "0", "member_id": 46058542, "response": "yes", "photo_url": "http://photos1.meetupstatic.com/photos/member/d/e/a/member_55329562.jpeg"}, {"comment": "", "city": "Kansas City", "updated": "Fri Jun 08 20:14:13 EDT 2012", "name": "Brandy N Clark", "zip": "64108", "created": "Fri Jun 08 20:14:13 EDT 2012", "event_id": 62339552, "country": "us", "lon": "-94.58000183105469", "coord": "39.08000183105469", "answers": [""], "id": "22617771", "state": "MO", "link": "http://www.meetup.com/members/22617771", "guests": "0", "member_id": 22617771, "response": "yes", "photo_url": "http://photos1.meetupstatic.com/photos/member/3/7/c/member_59670892.jpeg"}, {"comment": "", "city": "Kansas City", "updated": "Thu May 10 18:05:59 EDT 2012", "name": "Brian Hare", "zip": "64108", "created": "Thu May 10 18:05:59 EDT 2012", "event_id": 62339552, "country": "us", "lon": "-94.58000183105469", "coord": "39.08000183105469", "answers": ["None. "], "id": "23010351", "state": "MO", "link": "http://www.meetup.com/members/23010351", "guests": "0", "member_id": 23010351, "response": "yes", "photo_url": "http://photos1.meetupstatic.com/photos/member/8/5/d/member_21704141.jpeg"}, {"comment": "Can't make Friday, but will be there on Saturday.", "city": "Kansas City", "updated": "Mon Jun 18 10:20:26 EDT 2012", "name": "Caleb", "zip": "64114", "created": "Thu May 03 11:25:23 EDT 2012", "event_id": 62339552, "country": "us", "lon": "-94.5999984741211", "coord": "38.959999084472656", "answers": ["No requirements. Not a fan of seafood (don't waste the lobster and caviar on me...)."], "id": "3016720", "state": "MO", "link": "http://www.meetup.com/members/3016720", "guests": "0", "member_id": 3016720, "response": "yes", "photo_url": "http://photos1.meetupstatic.com/photos/member/b/e/2/member_50175042.jpeg"}, {"comment": "", "city": "Overland Park", "updated": "Thu Jun 21 23:57:12 EDT 2012", "name": "Camilo Snapp", "zip": "66210", "created": "Thu Jun 21 23:57:12 EDT 2012", "event_id": 62339552, "country": "us", "lon": "-94.68000030517578", "coord": "38.91999816894531", "answers": ["None"], "id": "22408261", "state": "KS", "link": "http://www.meetup.com/members/22408261", "guests": "0", "member_id": 22408261, "response": "yes", "photo_url": ""}, {"comment": "", "city": "Kansas City", "updated": "Mon Apr 30 11:36:24 EDT 2012", "name": "Carl Harmon", "zip": "64108", "created": "Mon Apr 30 11:36:24 EDT 2012", "event_id": 62339552, "country": "us", "lon": "-94.58000183105469", "coord": "39.08000183105469", "answers": [""], "id": "46344302", "state": "MO", "link": "http://www.meetup.com/members/46344302", "guests": "0", "member_id": 46344302, "response": "yes", "photo_url": "http://photos1.meetupstatic.com/photos/member/4/6/2/member_52255122.jpeg"}, {"comment": "", "city": "Kansas City", "updated": "Tue Jun 19 14:28:44 EDT 2012", "name": "Casey Justus", "zip": "64114", "created": "Tue Jun 19 14:28:44 EDT 2012", "event_id": 62339552, "country": "us", "lon": "-94.5999984741211", "coord": "38.959999084472656", "answers": [""], "id": "12531678", "state": "MO", "link": "http://www.meetup.com/members/12531678", "guests": "0", "member_id": 12531678, "response": "no", "photo_url": "http://photos1.meetupstatic.com/photos/member/e/b/2/member_43305762.jpeg"}, {"comment": "I'd be willing to help new users get their Python installs complete and tested.", "city": "Kansas City", "updated": "Thu May 03 00:47:29 EDT 2012", "name": "Chip Warden", "zip": "64131", "created": "Thu May 03 00:47:29 EDT 2012", "event_id": 62339552, "country": "us", "lon": "-94.56999969482422", "coord": "38.970001220703125", "answers": ["No."], "id": "12169524", "state": "MO", "link": "http://www.meetup.com/members/12169524", "guests": "0", "member_id": 12169524, "response": "yes", "photo_url": "http://photos1.meetupstatic.com/photos/member/1/7/0/d/member_15635901.jpeg"}, {"comment": "", "city": "Kansas City", "updated": "Sun Jun 10 09:32:04 EDT 2012", "name": "chris baker", "zip": "64108", "created": "Sun Jun 10 09:32:04 EDT 2012", "event_id": 62339552, "country": "us", "lon": "-94.58000183105469", "coord": "39.08000183105469", "answers": [""], "id": "50627262", "state": "MO", "link": "http://www.meetup.com/members/50627262", "guests": "0", "member_id": 50627262, "response": "yes", "photo_url": ""}, {"comment": "", "city": "Shawnee", "updated": "Fri Jun 08 20:14:01 EDT 2012", "name": "Chuck Johnson", "zip": "66203", "created": "Fri Jun 08 20:14:01 EDT 2012", "event_id": 62339552, "country": "us", "lon": "-94.69999694824219", "coord": "39.02000045776367", "answers": ["No restrictions."], "id": "13686525", "state": "KS", "link": "http://www.meetup.com/members/13686525", "guests": "0", "member_id": 13686525, "response": "yes", "photo_url": "http://photos1.meetupstatic.com/photos/member/1/4/4/9/member_11645193.jpeg"}, {"comment": "", "city": "Kansas City", "updated": "Thu Jun 21 23:47:30 EDT 2012", "name": "Clayton Snodgrass", "zip": "64131", "created": "Thu Jun 21 22:50:19 EDT 2012", "event_id": 62339552, "country": "us", "lon": "-94.56999969482422", "coord": "38.970001220703125", "answers": [""], "id": "14092542", "state": "MO", "link": "http://www.meetup.com/members/14092542", "guests": "0", "member_id": 14092542, "response": "yes", "photo_url": "http://photos1.meetupstatic.com/photos/member/1/1/a/a/member_59854522.jpeg"}, {"comment": "", "city": "Kansas City", "updated": "Thu Jun 21 15:41:22 EDT 2012", "name": "Colin Hendricks", "zip": "64108", "created": "Thu Jun 21 15:41:22 EDT 2012", "event_id": 62339552, "country": "us", "lon": "-94.58000183105469", "coord": "39.08000183105469", "answers": [""], "id": "52095902", "state": "MO", "link": "http://www.meetup.com/members/52095902", "guests": "0", "member_id": 52095902, "response": "yes", "photo_url": ""}, {"comment": "", "city": "Kansas City", "updated": "Thu Jun 21 10:39:04 EDT 2012", "name": "Darrin Ragsdale", "zip": "64113", "created": "Thu Jun 21 10:39:04 EDT 2012", "event_id": 62339552, "country": "us", "lon": "-94.5999984741211", "coord": "39.0099983215332", "answers": ["No"], "id": "51851132", "state": "MO", "link": "http://www.meetup.com/members/51851132", "guests": "0", "member_id": 51851132, "response": "yes", "photo_url": ""}, {"comment": "", "city": "Lawrence", "updated": "Sun Jun 03 13:53:46 EDT 2012", "name": "Dave Bosley", "zip": "66044", "created": "Sun Jun 03 13:53:46 EDT 2012", "event_id": 62339552, "country": "us", "lon": "-95.25", "coord": "38.959999084472656", "answers": [""], "id": "50002002", "state": "KS", "link": "http://www.meetup.com/members/50002002", "guests": "0", "member_id": 50002002, "response": "yes", "photo_url": ""}, {"comment": "", "city": "New York", "updated": "Sat Jun 16 21:04:47 EDT 2012", "name": "Dmitri Gaisan", "zip": "10001", "created": "Sat Jun 16 21:04:47 EDT 2012", "event_id": 62339552, "country": "us", "lon": "-73.98999786376953", "coord": "40.75", "answers": ["nope"], "id": "13302727", "state": "NY", "link": "http://www.meetup.com/members/13302727", "guests": "0", "member_id": 13302727, "response": "yes", "photo_url": "http://photos1.meetupstatic.com/photos/member/1/6/8/9/member_12449769.jpeg"}, {"comment": "", "city": "Kansas City", "updated": "Fri Jun 08 12:23:50 EDT 2012", "name": "Doug Niccum", "zip": "64108", "created": "Fri Jun 08 12:23:28 EDT 2012", "event_id": 62339552, "country": "us", "lon": "-94.58000183105469", "coord": "39.08000183105469", "answers": ["Nope!"], "id": "21248671", "state": "MO", "link": "http://www.meetup.com/members/21248671", "guests": "0", "member_id": 21248671, "response": "yes", "photo_url": "http://photos1.meetupstatic.com/photos/member/a/1/5/member_19820581.jpeg"}, {"comment": "I hate to miss this, but I have a conflict. I hope there will be another event like this!", "city": "Kansas City", "updated": "Thu Jun 21 23:47:30 EDT 2012", "name": "Eloise Daniel", "zip": "64131", "created": "Sun May 06 19:50:17 EDT 2012", "event_id": 62339552, "country": "us", "lon": "-94.56999969482422", "coord": "38.970001220703125", "answers": [""], "id": "41221652", "state": "MO", "link": "http://www.meetup.com/members/41221652", "guests": "0", "member_id": 41221652, "response": "no", "photo_url": ""}, {"comment": "I will be attending and I have a power strip.  Also, as for food vegetarian please.", "city": "Kansas City", "updated": "Fri Jun 22 12:23:36 EDT 2012", "name": "Elyas Shaiwani", "zip": "64101", "created": "Mon Jun 18 15:39:10 EDT 2012", "event_id": 62339552, "country": "us", "lon": "-94.5999984741211", "coord": "39.099998474121094", "answers": ["Vegetarian please."], "id": "14353148", "state": "MO", "link": "http://www.meetup.com/members/14353148", "guests": "0", "member_id": 14353148, "response": "yes", "photo_url": "http://photos1.meetupstatic.com/photos/member/9/2/4/member_12416340.jpeg"}, {"comment": "", "city": "Lenexa", "updated": "Mon Jun 04 23:01:37 EDT 2012", "name": "Eric Poe", "zip": "66215", "created": "Mon Jun 04 23:01:37 EDT 2012", "event_id": 62339552, "country": "us", "lon": "-94.73999786376953", "coord": "38.95000076293945", "answers": [""], "id": "49645492", "state": "KS", "link": "http://www.meetup.com/members/49645492", "guests": "0", "member_id": 49645492, "response": "yes", "photo_url": "http://photos1.meetupstatic.com/photos/member/1/6/2/8/member_56441672.jpeg"}, {"comment": "", "city": "Kansas City", "updated": "Thu Jun 21 13:30:53 EDT 2012", "name": "Erik Raith", "zip": "64108", "created": "Thu Jun 21 13:30:53 EDT 2012", "event_id": 62339552, "country": "us", "lon": "-94.58000183105469", "coord": "39.08000183105469", "answers": ["nope. (Unless Candy  Corn is on the menu)"], "id": "52080492", "state": "MO", "link": "http://www.meetup.com/members/52080492", "guests": "0", "member_id": 52080492, "response": "yes", "photo_url": "http://photos1.meetupstatic.com/photos/member/7/6/e/member_59329902.jpeg"}, {"comment": "", "city": "Kansas City", "updated": "Thu Jun 21 15:45:16 EDT 2012", "name": "Jamie McNeely", "zip": "64108", "created": "Thu Jun 21 15:45:16 EDT 2012", "event_id": 62339552, "country": "us", "lon": "-94.58000183105469", "coord": "39.08000183105469", "answers": ["Nope"], "id": "52090142", "state": "MO", "link": "http://www.meetup.com/members/52090142", "guests": "0", "member_id": 52090142, "response": "yes", "photo_url": "http://photos1.meetupstatic.com/photos/member/2/c/8/member_59340712.jpeg"}, {"comment": "", "city": "Kansas City", "updated": "Fri Jun 22 09:17:26 EDT 2012", "name": "Jamison Bradley", "zip": "64108", "created": "Fri Jun 22 09:17:26 EDT 2012", "event_id": 62339552, "country": "us", "lon": "-94.58000183105469", "coord": "39.08000183105469", "answers": ["none"], "id": "52171752", "state": "MO", "link": "http://www.meetup.com/members/52171752", "guests": "0", "member_id": 52171752, "response": "yes", "photo_url": "http://photos1.meetupstatic.com/photos/member/1/3/6/2/member_59440962.jpeg"}, {"comment": "", "city": "Lawrence", "updated": "Sat Jun 16 22:28:05 EDT 2012", "name": "Jason Novinger", "zip": "66046", "created": "Sat Jun 16 22:28:05 EDT 2012", "event_id": 62339552, "country": "us", "lon": "-95.26000213623047", "coord": "38.939998626708984", "answers": ["No restrictions"], "id": "42619072", "state": "KS", "link": "http://www.meetup.com/members/42619072", "guests": "0", "member_id": 42619072, "response": "yes", "photo_url": "http://photos1.meetupstatic.com/photos/member/5/0/2/member_59215282.jpeg"}, {"comment": "", "city": "Kansas City", "updated": "Tue Jun 19 15:03:11 EDT 2012", "name": "Jerrod", "zip": "64111", "created": "Tue Jun 19 15:03:11 EDT 2012", "event_id": 62339552, "country": "us", "lon": "-94.58999633789062", "coord": "39.060001373291016", "answers": [""], "id": "51843382", "state": "MO", "link": "http://www.meetup.com/members/51843382", "guests": "0", "member_id": 51843382, "response": "yes", "photo_url": ""}, {"comment": "", "city": "Lawrence", "updated": "Sun Jun 17 18:45:19 EDT 2012", "name": "John Kary", "zip": "66049", "created": "Wed May 30 15:28:32 EDT 2012", "event_id": 62339552, "country": "us", "lon": "-95.27999877929688", "coord": "38.970001220703125", "answers": ["Nope!"], "id": "31634682", "state": "KS", "link": "http://www.meetup.com/members/31634682", "guests": "0", "member_id": 31634682, "response": "no", "photo_url": "http://photos1.meetupstatic.com/photos/member/4/3/0/member_32071072.jpeg"}, {"comment": "", "city": "Kansas City", "updated": "Wed May 02 12:47:08 EDT 2012", "name": "Jonathan Weekes", "zip": "64108", "created": "Wed May 02 12:47:08 EDT 2012", "event_id": 62339552, "country": "us", "lon": "-94.58000183105469", "coord": "39.08000183105469", "answers": [""], "id": "46345552", "state": "MO", "link": "http://www.meetup.com/members/46345552", "guests": "0", "member_id": 46345552, "response": "yes", "photo_url": ""}, {"comment": "", "city": "Kansas City", "updated": "Mon Jun 18 10:13:40 EDT 2012", "name": "Jordan Brunk", "zip": "64108", "created": "Mon Jun 18 10:13:40 EDT 2012", "event_id": 62339552, "country": "us", "lon": "-94.58000183105469", "coord": "39.08000183105469", "answers": [""], "id": "51678512", "state": "MO", "link": "http://www.meetup.com/members/51678512", "guests": "0", "member_id": 51678512, "response": "yes", "photo_url": ""}, {"comment": "Feeling under the weather :(", "city": "Overland Park", "updated": "Fri Jun 22 18:18:34 EDT 2012", "name": "Josh Bohde", "zip": "66223", "created": "Thu May 10 22:49:17 EDT 2012", "event_id": 62339552, "country": "us", "lon": "-94.66999816894531", "coord": "38.849998474121094", "answers": ["vegan"], "id": "12190508", "state": "KS", "link": "http://www.meetup.com/members/12190508", "guests": "0", "member_id": 12190508, "response": "no", "photo_url": "http://photos1.meetupstatic.com/photos/member/7/5/6/member_9811878.jpeg"}, {"comment": "", "city": "Overland Park", "updated": "Thu Apr 26 22:50:03 EDT 2012", "name": "Juan Gomez", "zip": "66210", "created": "Thu Apr 26 22:50:03 EDT 2012", "event_id": 62339552, "country": "us", "lon": "-94.68000030517578", "coord": "38.91999816894531", "answers": [""], "id": "15586711", "state": "KS", "link": "http://www.meetup.com/members/15586711", "guests": "0", "member_id": 15586711, "response": "yes", "photo_url": "http://photos1.meetupstatic.com/photos/member/b/e/2/member_56655042.jpeg"}, {"comment": "Can't Wait. THis is a great opportunity.", "city": "Indianapolis", "updated": "Wed May 16 17:36:55 EDT 2012", "name": "Katie Franke", "zip": "46201", "created": "Wed May 16 17:36:55 EDT 2012", "event_id": 62339552, "country": "us", "lon": "-86.11000061035156", "coord": "39.77000045776367", "answers": ["nope"], "id": "43818382", "state": "IN", "link": "http://www.meetup.com/members/43818382", "guests": "0", "member_id": 43818382, "response": "yes", "photo_url": "http://photos1.meetupstatic.com/photos/member/5/f/2/member_48985522.jpeg"}, {"comment": "Yes, I will be there", "city": "Overland Park", "updated": "Mon Jun 18 21:33:07 EDT 2012", "name": "Ken Hodges", "zip": "66212", "created": "Mon Jun 18 21:33:07 EDT 2012", "event_id": 62339552, "country": "us", "lon": "-94.68000030517578", "coord": "38.959999084472656", "answers": ["none"], "id": "33567822", "state": "KS", "link": "http://www.meetup.com/members/33567822", "guests": "0", "member_id": 33567822, "response": "yes", "photo_url": "http://photos1.meetupstatic.com/photos/member/a/3/e/member_58940622.jpeg"}, {"comment": "", "city": "Overland Park", "updated": "Fri Jun 08 14:18:41 EDT 2012", "name": "Kevin", "zip": "66212", "created": "Fri Jun 08 13:40:08 EDT 2012", "event_id": 62339552, "country": "us", "lon": "-94.68000030517578", "coord": "38.959999084472656", "answers": [""], "id": "43066382", "state": "KS", "link": "http://www.meetup.com/members/43066382", "guests": "0", "member_id": 43066382, "response": "no", "photo_url": "http://photos1.meetupstatic.com/photos/member/d/e/a/member_47949562.jpeg"}, {"comment": "I forgot to bring my laptop with me and it is too far away to get it now.  ", "city": "Kansas City", "updated": "Fri Jun 22 14:09:49 EDT 2012", "name": "Kyle Gonterwitz", "zip": "64108", "created": "Fri Jun 08 14:00:52 EDT 2012", "event_id": 62339552, "country": "us", "lon": "-94.58000183105469", "coord": "39.08000183105469", "answers": [""], "id": "45171272", "state": "MO", "link": "http://www.meetup.com/members/45171272", "guests": "0", "member_id": 45171272, "response": "no", "photo_url": "http://photos1.meetupstatic.com/photos/member/1/6/d/2/member_50753842.jpeg"}, {"comment": "", "city": "Kansas City", "updated": "Thu Jun 21 15:43:35 EDT 2012", "name": "Kyle Putnam", "zip": "64112", "created": "Thu Jun 21 15:43:29 EDT 2012", "event_id": 62339552, "country": "us", "lon": "-94.58999633789062", "coord": "39.040000915527344", "answers": [""], "id": "14605250", "state": "MO", "link": "http://www.meetup.com/members/14605250", "guests": "0", "member_id": 14605250, "response": "yes", "photo_url": "http://photos1.meetupstatic.com/photos/member/3/7/5/member_12708885.jpeg"}, {"comment": "", "city": "Kansas City", "updated": "Fri Jun 08 13:56:50 EDT 2012", "name": "Landon Jurgens", "zip": "64108", "created": "Fri Jun 08 13:56:50 EDT 2012", "event_id": 62339552, "country": "us", "lon": "-94.58000183105469", "coord": "39.08000183105469", "answers": [""], "id": "35169062", "state": "MO", "link": "http://www.meetup.com/members/35169062", "guests": "0", "member_id": 35169062, "response": "no", "photo_url": ""}, {"comment": "sux very much that I can't make it.", "city": "Shawnee", "updated": "Thu Jun 21 23:48:30 EDT 2012", "name": "Lee", "zip": "66203", "created": "Fri Jun 08 14:23:45 EDT 2012", "event_id": 62339552, "country": "us", "lon": "-94.69999694824219", "coord": "39.02000045776367", "answers": ["no"], "id": "3099303", "state": "KS", "link": "http://www.meetup.com/members/3099303", "guests": "0", "member_id": 3099303, "response": "no", "photo_url": "http://photos1.meetupstatic.com/photos/member/1/9/a/member_2460410.jpeg"}, {"comment": "I'll be there to help out.", "city": "Independence", "updated": "Fri Jun 08 12:26:12 EDT 2012", "name": "Mark", "zip": "64057", "created": "Fri Jun 08 12:25:46 EDT 2012", "event_id": 62339552, "country": "us", "lon": "-94.3499984741211", "coord": "39.06999969482422", "answers": [""], "id": "10699734", "state": "MO", "link": "http://www.meetup.com/members/10699734", "guests": "0", "member_id": 10699734, "response": "yes", "photo_url": "http://photos1.meetupstatic.com/photos/member/c/4/c/member_7977148.jpeg"}, {"comment": "Freeing up my seat as I'll be assisting with Friday night setups only", "city": "Independence", "updated": "Fri Jun 22 01:17:00 EDT 2012", "name": "Mark Stinson", "zip": "64055", "created": "Sun May 20 21:36:53 EDT 2012", "event_id": 62339552, "country": "us", "lon": "-94.4000015258789", "coord": "39.04999923706055", "answers": [""], "id": "9611787", "state": "MO", "link": "http://www.meetup.com/members/9611787", "guests": "0", "member_id": 9611787, "response": "no", "photo_url": "http://photos1.meetupstatic.com/photos/member/1/0/7/c/member_6688220.jpeg"}, {"comment": "", "city": "Kansas City", "updated": "Sun Jun 17 14:17:20 EDT 2012", "name": "Mike Wilson", "zip": "64111", "created": "Sun Jun 17 14:16:35 EDT 2012", "event_id": 62339552, "country": "us", "lon": "-94.58999633789062", "coord": "39.060001373291016", "answers": ["None"], "id": "38273992", "state": "MO", "link": "http://www.meetup.com/members/38273992", "guests": "0", "member_id": 38273992, "response": "yes", "photo_url": "http://photos1.meetupstatic.com/photos/member/8/2/c/member_41366092.jpeg"}, {"comment": "", "city": "Kansas City", "updated": "Thu Jun 21 15:45:42 EDT 2012", "name": "Nandini Devi Parimi", "zip": "64108", "created": "Thu Jun 21 15:45:42 EDT 2012", "event_id": 62339552, "country": "us", "lon": "-94.58000183105469", "coord": "39.08000183105469", "answers": ["Vegitarian"], "id": "52090672", "state": "MO", "link": "http://www.meetup.com/members/52090672", "guests": "0", "member_id": 52090672, "response": "yes", "photo_url": "http://photos1.meetupstatic.com/photos/member/4/e/e/member_59341262.jpeg"}, {"comment": "", "city": "Lawrence", "updated": "Fri Jun 22 04:27:43 EDT 2012", "name": "Nate Bunnyfield", "zip": "66044", "created": "Fri Jun 22 04:27:43 EDT 2012", "event_id": 62339552, "country": "us", "lon": "-95.25", "coord": "38.959999084472656", "answers": [""], "id": "39280012", "state": "KS", "link": "http://www.meetup.com/members/39280012", "guests": "0", "member_id": 39280012, "response": "no", "photo_url": "http://photos1.meetupstatic.com/photos/member/1/7/6/8/member_42701992.jpeg"}, {"comment": "", "city": "Kansas City", "updated": "Thu May 10 18:22:50 EDT 2012", "name": "Nathan Victor", "zip": "64108", "created": "Thu May 10 18:22:50 EDT 2012", "event_id": 62339552, "country": "us", "lon": "-94.58000183105469", "coord": "39.08000183105469", "answers": [""], "id": "24103382", "state": "MO", "link": "http://www.meetup.com/members/24103382", "guests": "0", "member_id": 24103382, "response": "yes", "photo_url": "http://photos1.meetupstatic.com/photos/member/d/e/0/member_58071552.jpeg"}, {"comment": "", "city": "Kansas City", "updated": "Thu Jun 21 15:07:02 EDT 2012", "name": "Paul Clark", "zip": "64108", "created": "Thu Jun 21 15:07:02 EDT 2012", "event_id": 62339552, "country": "us", "lon": "-94.58000183105469", "coord": "39.08000183105469", "answers": [""], "id": "52092052", "state": "MO", "link": "http://www.meetup.com/members/52092052", "guests": "0", "member_id": 52092052, "response": "yes", "photo_url": ""}, {"comment": "Me and my 9 year old son will be there.", "city": "Saint Louis", "updated": "Wed May 16 17:25:30 EDT 2012", "name": "Peter Veenstra", "zip": "63103", "created": "Wed May 16 17:25:30 EDT 2012", "event_id": 62339552, "country": "us", "lon": "-90.20999908447266", "coord": "38.630001068115234", "answers": [""], "id": "24568622", "state": "MO", "link": "http://www.meetup.com/members/24568622", "guests": "0", "member_id": 24568622, "response": "yes", "photo_url": "http://photos1.meetupstatic.com/photos/member/8/e/a/member_23402282.jpeg"}, {"comment": "Super excited. Can't wait to attend.", "city": "Kansas City", "updated": "Sat Jun 09 10:13:50 EDT 2012", "name": "Randy Augustus", "zip": "64108", "created": "Mon May 21 11:34:45 EDT 2012", "event_id": 62339552, "country": "us", "lon": "-94.58000183105469", "coord": "39.08000183105469", "answers": [""], "id": "45699022", "state": "MO", "link": "http://www.meetup.com/members/45699022", "guests": "0", "member_id": 45699022, "response": "yes", "photo_url": "http://photos1.meetupstatic.com/photos/member/7/1/4/member_53155812.jpeg"}, {"comment": "", "city": "Overland Park", "updated": "Thu May 24 11:35:22 EDT 2012", "name": "Rick Rodriguez", "zip": "66221", "created": "Thu May 24 11:35:22 EDT 2012", "event_id": 62339552, "country": "us", "lon": "-94.70999908447266", "coord": "38.86000061035156", "answers": ["none"], "id": "35027222", "state": "KS", "link": "http://www.meetup.com/members/35027222", "guests": "0", "member_id": 35027222, "response": "yes", "photo_url": ""}, {"comment": "", "city": "Kansas City", "updated": "Mon Jun 18 17:14:45 EDT 2012", "name": "Rion Martin", "zip": "64108", "created": "Mon Jun 18 17:14:45 EDT 2012", "event_id": 62339552, "country": "us", "lon": "-94.58000183105469", "coord": "39.08000183105469", "answers": ["Nope"], "id": "51725102", "state": "MO", "link": "http://www.meetup.com/members/51725102", "guests": "0", "member_id": 51725102, "response": "yes", "photo_url": "http://photos1.meetupstatic.com/photos/member/f/0/2/member_58893842.jpeg"}, {"comment": "", "city": "Liberty", "updated": "Thu May 24 15:59:58 EDT 2012", "name": "Roger Holifield", "zip": "64068", "created": "Thu May 24 15:59:58 EDT 2012", "event_id": 62339552, "country": "us", "lon": "-94.41999816894531", "coord": "39.279998779296875", "answers": [""], "id": "14194890", "state": "MO", "link": "http://www.meetup.com/members/14194890", "guests": "0", "member_id": 14194890, "response": "yes", "photo_url": "http://photos1.meetupstatic.com/photos/member/c/c/9/member_12243273.jpeg"}, {"comment": "", "city": "Gardner", "updated": "Sat Jun 09 23:53:02 EDT 2012", "name": "Ryan Bourgeois", "zip": "66030", "created": "Sat Jun 09 23:53:02 EDT 2012", "event_id": 62339552, "country": "us", "lon": "-94.93000030517578", "coord": "38.81999969482422", "answers": [""], "id": "14649997", "state": "KS", "link": "http://www.meetup.com/members/14649997", "guests": "0", "member_id": 14649997, "response": "no", "photo_url": "http://photos1.meetupstatic.com/photos/member/7/d/c/member_57344012.jpeg"}, {"comment": "", "city": "Kansas City", "updated": "Thu Jun 21 15:12:55 EDT 2012", "name": "Singh", "zip": "64111", "created": "Thu Jun 14 12:12:13 EDT 2012", "event_id": 62339552, "country": "us", "lon": "-94.58999633789062", "coord": "39.060001373291016", "answers": ["Dietary restrictions: vegan (no egg, dairy, meat, fish, gelatin, etc) "], "id": "37214652", "state": "MO", "link": "http://www.meetup.com/members/37214652", "guests": "0", "member_id": 37214652, "response": "yes", "photo_url": "http://photos1.meetupstatic.com/photos/member/3/2/c/member_39966812.jpeg"}, {"comment": "", "city": "Kansas City", "updated": "Tue Jun 12 00:04:10 EDT 2012", "name": "Steve Kohlmeyer", "zip": "64108", "created": "Tue Jun 12 00:02:08 EDT 2012", "event_id": 62339552, "country": "us", "lon": "-94.58000183105469", "coord": "39.08000183105469", "answers": ["null"], "id": "50060612", "state": "MO", "link": "http://www.meetup.com/members/50060612", "guests": "0", "member_id": 50060612, "response": "no", "photo_url": "http://photos1.meetupstatic.com/photos/member/d/f/4/member_56973572.jpeg"}, {"comment": "", "city": "Kansas City", "updated": "Thu Jun 21 15:23:37 EDT 2012", "name": "Theodore Sherbin", "zip": "64108", "created": "Thu Jun 21 15:23:37 EDT 2012", "event_id": 62339552, "country": "us", "lon": "-94.58000183105469", "coord": "39.08000183105469", "answers": [""], "id": "52093852", "state": "MO", "link": "http://www.meetup.com/members/52093852", "guests": "0", "member_id": 52093852, "response": "yes", "photo_url": ""}, {"comment": "", "city": "Kansas City", "updated": "Thu Jun 21 14:41:19 EDT 2012", "name": "Thomas Hendricks", "zip": "64108", "created": "Thu Jun 21 14:36:01 EDT 2012", "event_id": 62339552, "country": "us", "lon": "-94.58000183105469", "coord": "39.08000183105469", "answers": [""], "id": "52087522", "state": "MO", "link": "http://www.meetup.com/members/52087522", "guests": "0", "member_id": 52087522, "response": "yes", "photo_url": ""}, {"comment": "", "city": "Kansas City", "updated": "Mon Jun 11 11:12:41 EDT 2012", "name": "Tim Askew", "zip": "64157", "created": "Mon Jun 11 11:12:41 EDT 2012", "event_id": 62339552, "country": "us", "lon": "-94.47000122070312", "coord": "39.279998779296875", "answers": [""], "id": "18105561", "state": "MO", "link": "http://www.meetup.com/members/18105561", "guests": "0", "member_id": 18105561, "response": "yes", "photo_url": "http://photos1.meetupstatic.com/photos/member/d/1/7/member_16425351.jpeg"}, {"comment": "", "city": "Kansas City", "updated": "Tue Jun 19 14:33:54 EDT 2012", "name": "Tim Henningsen", "zip": "64105", "created": "Tue Jun 19 14:33:54 EDT 2012", "event_id": 62339552, "country": "us", "lon": "-94.5199966430664", "coord": "39.11000061035156", "answers": ["vegetarian"], "id": "37447912", "state": "MO", "link": "http://www.meetup.com/members/37447912", "guests": "0", "member_id": 37447912, "response": "yes", "photo_url": "http://photos1.meetupstatic.com/photos/member/7/e/6/member_40280022.jpeg"}, {"comment": "", "city": "Kansas City", "updated": "Thu Jun 07 21:13:39 EDT 2012", "name": "Timothy Scott Hawley Jr.", "zip": "64108", "created": "Thu Jun 07 21:13:39 EDT 2012", "event_id": 62339552, "country": "us", "lon": "-94.58000183105469", "coord": "39.08000183105469", "answers": ["Nope. I'll eat pretty much whatever you give me."], "id": "50531702", "state": "MO", "link": "http://www.meetup.com/members/50531702", "guests": "0", "member_id": 50531702, "response": "yes", "photo_url": ""}, {"comment": "Be there on Saturday", "city": "Kansas City", "updated": "Tue Jun 19 18:12:10 EDT 2012", "name": "Tyler Hoffman", "zip": "64108", "created": "Tue Jun 19 18:12:10 EDT 2012", "event_id": 62339552, "country": "us", "lon": "-94.58000183105469", "coord": "39.08000183105469", "answers": ["None"], "id": "51869862", "state": "MO", "link": "http://www.meetup.com/members/51869862", "guests": "0", "member_id": 51869862, "response": "yes", "photo_url": ""}]